[
  {"iata": "AAL", "name": "Aalborg Airport", "city": "Aalborg", "country": "Denmark", "lat": 57.0926, "lng": 9.8492},
  {"iata": "ABJ", "name": "Port Bouet Airport", "city": "Abidjan", "country": "Ivory Coast", "lat": 5.2614, "lng": -3.9262},
  {"iata": "ABQ", "name": "Albuquerque International Sunport", "city": "Albuquerque", "country": "United States", "lat": 35.0402, "lng": -106.6092},
  {"iata": "ABV", "name": "Nnamdi Azikiwe International Airport", "city": "Abuja", "country": "Nigeria", "lat": 9.0068, "lng": 7.2632},
  {"iata": "ABZ", "name": "Aberdeen International Airport", "city": "Aberdeen", "country": "United Kingdom", "lat": 57.2019, "lng": -2.1978},
  {"iata": "ACC", "name": "Kotoka International Airport", "city": "Accra", "country": "Ghana", "lat": 5.6052, "lng": -0.1668},
  {"iata": "ACE", "name": "Lanzarote Airport", "city": "Lanzarote", "country": "Spain", "lat": 28.9455, "lng": -13.6052},
  {"iata": "ADA", "name": "Sakirpasa Airport", "city": "Adana", "country": "Turkey", "lat": 36.9822, "lng": 35.2804},
  {"iata": "ADD", "name": "Bole International Airport", "city": "Addis Ababa", "country": "Ethiopia", "lat": 8.9779, "lng": 38.7993},
  {"iata": "ADL", "name": "Adelaide Airport", "city": "Adelaide", "country": "Australia", "lat": -34.9450, "lng": 138.5306},
  {"iata": "AEP", "name": "Jorge Newbery Airpark", "city": "Buenos Aires", "country": "Argentina", "lat": -34.5592, "lng": -58.4156},
  {"iata": "AGP", "name": "Malaga-Costa del Sol Airport", "city": "Malaga", "country": "Spain", "lat": 36.6749, "lng": -4.4991},
  {"iata": "AHB", "name": "Abha International Airport", "city": "Abha", "country": "Saudi Arabia", "lat": 18.2404, "lng": 42.6567},
  {"iata": "AJA", "name": "Ajaccio Napoleon Bonaparte Airport", "city": "Ajaccio", "country": "France", "lat": 41.9236, "lng": 8.8029},
  {"iata": "AKL", "name": "Auckland Airport", "city": "Auckland", "country": "New Zealand", "lat": -37.0082, "lng": 174.7850},
  {"iata": "ALA", "name": "Almaty International Airport", "city": "Almaty", "country": "Kazakhstan", "lat": 43.3521, "lng": 77.0405},
  {"iata": "ALC", "name": "Alicante-Elche Airport", "city": "Alicante", "country": "Spain", "lat": 38.2822, "lng": -0.5582},
  {"iata": "ALG", "name": "Houari Boumediene Airport", "city": "Algiers", "country": "Algeria", "lat": 36.6910, "lng": 3.2154},
  {"iata": "AMD", "name": "Sardar Vallabhbhai Patel International Airport", "city": "Ahmedabad", "country": "India", "lat": 23.0772, "lng": 72.6347},
  {"iata": "AMM", "name": "Queen Alia International Airport", "city": "Amman", "country": "Jordan", "lat": 31.7226, "lng": 35.9932},
  {"iata": "AMS", "name": "Amsterdam Airport Schiphol", "city": "Amsterdam", "country": "Netherlands", "lat": 52.3086, "lng": 4.7639},
  {"iata": "ANC", "name": "Ted Stevens Anchorage International Airport", "city": "Anchorage", "country": "United States", "lat": 61.1743, "lng": -149.9962},
  {"iata": "ANR", "name": "Antwerp International Airport", "city": "Antwerp", "country": "Belgium", "lat": 51.1894, "lng": 4.4603},
  {"iata": "ANU", "name": "V.C. Bird International Airport", "city": "Antigua", "country": "Antigua and Barbuda", "lat": 17.1367, "lng": -61.7926},
  {"iata": "APW", "name": "Faleolo International Airport", "city": "Apia", "country": "Samoa", "lat": -13.8299, "lng": -172.0083},
  {"iata": "ARN", "name": "Stockholm Arlanda Airport", "city": "Stockholm", "country": "Sweden", "lat": 59.6519, "lng": 17.9186},
  {"iata": "ASB", "name": "Ashgabat International Airport", "city": "Ashgabat", "country": "Turkmenistan", "lat": 37.9868, "lng": 58.3610},
  {"iata": "ASU", "name": "Silvio Pettirossi International Airport", "city": "Asuncion", "country": "Paraguay", "lat": -25.2400, "lng": -57.5191},
  {"iata": "ATH", "name": "Athens International Airport", "city": "Athens", "country": "Greece", "lat": 37.9364, "lng": 23.9445},
  {"iata": "ATL", "name": "Hartsfield-Jackson Atlanta International Airport", "city": "Atlanta", "country": "United States", "lat": 33.6407, "lng": -84.4277},
  {"iata": "AUA", "name": "Queen Beatrix International Airport", "city": "Oranjestad", "country": "Aruba", "lat": 12.5014, "lng": -70.0152},
  {"iata": "AUH", "name": "Abu Dhabi International Airport", "city": "Abu Dhabi", "country": "United Arab Emirates", "lat": 24.4330, "lng": 54.6511},
  {"iata": "AUS", "name": "Austin-Bergstrom International Airport", "city": "Austin", "country": "United States", "lat": 30.1975, "lng": -97.6664},
  {"iata": "BAH", "name": "Bahrain International Airport", "city": "Manama", "country": "Bahrain", "lat": 26.2708, "lng": 50.6336},
  {"iata": "BCN", "name": "Barcelona-El Prat Airport", "city": "Barcelona", "country": "Spain", "lat": 41.2971, "lng": 2.0785},
  {"iata": "BDL", "name": "Bradley International Airport", "city": "Hartford", "country": "United States", "lat": 41.9389, "lng": -72.6832},
  {"iata": "BEG", "name": "Belgrade Nikola Tesla Airport", "city": "Belgrade", "country": "Serbia", "lat": 44.8184, "lng": 20.3091},
  {"iata": "BEL", "name": "Val de Cans International Airport", "city": "Belem", "country": "Brazil", "lat": -1.3793, "lng": -48.4764},
  {"iata": "BER", "name": "Berlin Brandenburg Airport", "city": "Berlin", "country": "Germany", "lat": 52.3667, "lng": 13.5033},
  {"iata": "BEY", "name": "Beirut-Rafic Hariri International Airport", "city": "Beirut", "country": "Lebanon", "lat": 33.8209, "lng": 35.4884},
  {"iata": "BGI", "name": "Grantley Adams International Airport", "city": "Bridgetown", "country": "Barbados", "lat": 13.0746, "lng": -59.4925},
  {"iata": "BGO", "name": "Bergen Airport Flesland", "city": "Bergen", "country": "Norway", "lat": 60.2934, "lng": 5.2181},
  {"iata": "BGW", "name": "Baghdad International Airport", "city": "Baghdad", "country": "Iraq", "lat": 33.2625, "lng": 44.2346},
  {"iata": "BHX", "name": "Birmingham Airport", "city": "Birmingham", "country": "United Kingdom", "lat": 52.4539, "lng": -1.7480},
  {"iata": "BIO", "name": "Bilbao Airport", "city": "Bilbao", "country": "Spain", "lat": 43.3011, "lng": -2.9106},
  {"iata": "BKK", "name": "Suvarnabhumi Airport", "city": "Bangkok", "country": "Thailand", "lat": 13.6900, "lng": 100.7501},
  {"iata": "BKO", "name": "Modibo Keita International Airport", "city": "Bamako", "country": "Mali", "lat": 12.5335, "lng": -7.9499},
  {"iata": "BLQ", "name": "Bologna Guglielmo Marconi Airport", "city": "Bologna", "country": "Italy", "lat": 44.5354, "lng": 11.2887},
  {"iata": "BLR", "name": "Kempegowda International Airport", "city": "Bengaluru", "country": "India", "lat": 13.1979, "lng": 77.7063},
  {"iata": "BNA", "name": "Nashville International Airport", "city": "Nashville", "country": "United States", "lat": 36.1245, "lng": -86.6782},
  {"iata": "BNE", "name": "Brisbane Airport", "city": "Brisbane", "country": "Australia", "lat": -27.3842, "lng": 153.1175},
  {"iata": "BOD", "name": "Bordeaux-Merignac Airport", "city": "Bordeaux", "country": "France", "lat": 44.8283, "lng": -0.7156},
  {"iata": "BOG", "name": "El Dorado International Airport", "city": "Bogota", "country": "Colombia", "lat": 4.7016, "lng": -74.1469},
  {"iata": "BOM", "name": "Chhatrapati Shivaji Maharaj International Airport", "city": "Mumbai", "country": "India", "lat": 19.0896, "lng": 72.8656},
  {"iata": "BOS", "name": "Boston Logan International Airport", "city": "Boston", "country": "United States", "lat": 42.3656, "lng": -71.0096},
  {"iata": "BPN", "name": "Sultan Aji Muhammad Sulaiman Airport", "city": "Balikpapan", "country": "Indonesia", "lat": -1.2673, "lng": 116.8947},
  {"iata": "BRE", "name": "Bremen Airport", "city": "Bremen", "country": "Germany", "lat": 53.0475, "lng": 8.7867},
  {"iata": "BRI", "name": "Bari Karol Wojtyla Airport", "city": "Bari", "country": "Italy", "lat": 41.1389, "lng": 16.7606},
  {"iata": "BRS", "name": "Bristol Airport", "city": "Bristol", "country": "United Kingdom", "lat": 51.3827, "lng": -2.7191},
  {"iata": "BRU", "name": "Brussels Airport", "city": "Brussels", "country": "Belgium", "lat": 50.9014, "lng": 4.4844},
  {"iata": "BSB", "name": "Presidente Juscelino Kubitschek International Airport", "city": "Brasilia", "country": "Brazil", "lat": -15.8711, "lng": -47.9186},
  {"iata": "BSL", "name": "EuroAirport Basel-Mulhouse-Freiburg", "city": "Basel", "country": "Switzerland", "lat": 47.5896, "lng": 7.5299},
  {"iata": "BTS", "name": "M. R. Stefanik Airport", "city": "Bratislava", "country": "Slovakia", "lat": 48.1702, "lng": 17.2127},
  {"iata": "BUD", "name": "Budapest Ferenc Liszt International Airport", "city": "Budapest", "country": "Hungary", "lat": 47.4298, "lng": 19.2611},
  {"iata": "BUF", "name": "Buffalo Niagara International Airport", "city": "Buffalo", "country": "United States", "lat": 42.9405, "lng": -78.7322},
  {"iata": "BWI", "name": "Baltimore/Washington International Airport", "city": "Baltimore", "country": "United States", "lat": 39.1754, "lng": -76.6684},
  {"iata": "BWN", "name": "Brunei International Airport", "city": "Bandar Seri Begawan", "country": "Brunei", "lat": 4.9442, "lng": 114.9283},
  {"iata": "BZV", "name": "Maya-Maya Airport", "city": "Brazzaville", "country": "Republic of the Congo", "lat": -4.2517, "lng": 15.2530},
  {"iata": "CAG", "name": "Cagliari Elmas Airport", "city": "Cagliari", "country": "Italy", "lat": 39.2515, "lng": 9.0543},
  {"iata": "CAI", "name": "Cairo International Airport", "city": "Cairo", "country": "Egypt", "lat": 30.1219, "lng": 31.4056},
  {"iata": "CAN", "name": "Guangzhou Baiyun International Airport", "city": "Guangzhou", "country": "China", "lat": 23.3924, "lng": 113.2988},
  {"iata": "CBR", "name": "Canberra Airport", "city": "Canberra", "country": "Australia", "lat": -35.3069, "lng": 149.1951},
  {"iata": "CCJ", "name": "Calicut International Airport", "city": "Kozhikode", "country": "India", "lat": 11.1368, "lng": 75.9553},
  {"iata": "CCS", "name": "Simon Bolivar International Airport", "city": "Caracas", "country": "Venezuela", "lat": 10.6012, "lng": -66.9912},
  {"iata": "CCU", "name": "Netaji Subhas Chandra Bose International Airport", "city": "Kolkata", "country": "India", "lat": 22.6547, "lng": 88.4467},
  {"iata": "CDG", "name": "Charles de Gaulle Airport", "city": "Paris", "country": "France", "lat": 49.0097, "lng": 2.5479},
  {"iata": "CEB", "name": "Mactan-Cebu International Airport", "city": "Cebu", "country": "Philippines", "lat": 10.3075, "lng": 123.9794},
  {"iata": "CEI", "name": "Mae Fah Luang-Chiang Rai International Airport", "city": "Chiang Rai", "country": "Thailand", "lat": 19.9522, "lng": 99.8828},
  {"iata": "CFU", "name": "Corfu International Airport", "city": "Corfu", "country": "Greece", "lat": 39.6019, "lng": 19.9117},
  {"iata": "CGK", "name": "Soekarno-Hatta International Airport", "city": "Jakarta", "country": "Indonesia", "lat": -6.1256, "lng": 106.6559},
  {"iata": "CGN", "name": "Cologne Bonn Airport", "city": "Cologne", "country": "Germany", "lat": 50.8659, "lng": 7.1427},
  {"iata": "CGO", "name": "Zhengzhou Xinzheng International Airport", "city": "Zhengzhou", "country": "China", "lat": 34.5197, "lng": 113.8408},
  {"iata": "CHC", "name": "Christchurch International Airport", "city": "Christchurch", "country": "New Zealand", "lat": -43.4894, "lng": 172.5322},
  {"iata": "CJU", "name": "Jeju International Airport", "city": "Jeju", "country": "South Korea", "lat": 33.5113, "lng": 126.4930},
  {"iata": "CKG", "name": "Chongqing Jiangbei International Airport", "city": "Chongqing", "country": "China", "lat": 29.7192, "lng": 106.6417},
  {"iata": "CLE", "name": "Cleveland Hopkins International Airport", "city": "Cleveland", "country": "United States", "lat": 41.4117, "lng": -81.8498},
  {"iata": "CLT", "name": "Charlotte Douglas International Airport", "city": "Charlotte", "country": "United States", "lat": 35.2140, "lng": -80.9431},
  {"iata": "CMB", "name": "Bandaranaike International Airport", "city": "Colombo", "country": "Sri Lanka", "lat": 7.1808, "lng": 79.8841},
  {"iata": "CMH", "name": "John Glenn Columbus International Airport", "city": "Columbus", "country": "United States", "lat": 39.9980, "lng": -82.8919},
  {"iata": "CMN", "name": "Mohammed V International Airport", "city": "Casablanca", "country": "Morocco", "lat": 33.3675, "lng": -7.5900},
  {"iata": "CNF", "name": "Tancredo Neves International Airport", "city": "Belo Horizonte", "country": "Brazil", "lat": -19.6244, "lng": -43.9719},
  {"iata": "CNS", "name": "Cairns Airport", "city": "Cairns", "country": "Australia", "lat": -16.8858, "lng": 145.7553},
  {"iata": "CNX", "name": "Chiang Mai International Airport", "city": "Chiang Mai", "country": "Thailand", "lat": 18.7668, "lng": 98.9626},
  {"iata": "COK", "name": "Cochin International Airport", "city": "Kochi", "country": "India", "lat": 10.1520, "lng": 76.4019},
  {"iata": "COR", "name": "Ingeniero Ambrosio Taravella Airport", "city": "Cordoba", "country": "Argentina", "lat": -31.3236, "lng": -64.2081},
  {"iata": "CPH", "name": "Copenhagen Airport", "city": "Copenhagen", "country": "Denmark", "lat": 55.6181, "lng": 12.6561},
  {"iata": "CPT", "name": "Cape Town International Airport", "city": "Cape Town", "country": "South Africa", "lat": -33.9649, "lng": 18.6017},
  {"iata": "CRK", "name": "Clark International Airport", "city": "Angeles", "country": "Philippines", "lat": 15.1860, "lng": 120.5594},
  {"iata": "CSX", "name": "Changsha Huanghua International Airport", "city": "Changsha", "country": "China", "lat": 28.1892, "lng": 113.2200},
  {"iata": "CTA", "name": "Catania-Fontanarossa Airport", "city": "Catania", "country": "Italy", "lat": 37.4668, "lng": 15.0664},
  {"iata": "CTG", "name": "Rafael Nunez International Airport", "city": "Cartagena", "country": "Colombia", "lat": 10.4424, "lng": -75.5130},
  {"iata": "CTS", "name": "New Chitose Airport", "city": "Sapporo", "country": "Japan", "lat": 42.7752, "lng": 141.6925},
  {"iata": "CTU", "name": "Chengdu Shuangliu International Airport", "city": "Chengdu", "country": "China", "lat": 30.5785, "lng": 103.9471},
  {"iata": "CUN", "name": "Cancun International Airport", "city": "Cancun", "country": "Mexico", "lat": 21.0365, "lng": -86.8771},
  {"iata": "CUR", "name": "Curacao International Airport", "city": "Willemstad", "country": "Curacao", "lat": 12.1889, "lng": -68.9598},
  {"iata": "CVG", "name": "Cincinnati/Northern Kentucky International Airport", "city": "Cincinnati", "country": "United States", "lat": 39.0488, "lng": -84.6678},
  {"iata": "CWB", "name": "Afonso Pena International Airport", "city": "Curitiba", "country": "Brazil", "lat": -25.5285, "lng": -49.1758},
  {"iata": "DAC", "name": "Hazrat Shahjalal International Airport", "city": "Dhaka", "country": "Bangladesh", "lat": 23.8433, "lng": 90.3978},
  {"iata": "DAD", "name": "Da Nang International Airport", "city": "Da Nang", "country": "Vietnam", "lat": 16.0439, "lng": 108.1992},
  {"iata": "DAM", "name": "Damascus International Airport", "city": "Damascus", "country": "Syria", "lat": 33.4114, "lng": 36.5156},
  {"iata": "DAR", "name": "Julius Nyerere International Airport", "city": "Dar es Salaam", "country": "Tanzania", "lat": -6.8781, "lng": 39.2026},
  {"iata": "DCA", "name": "Ronald Reagan Washington National Airport", "city": "Washington", "country": "United States", "lat": 38.8521, "lng": -77.0377},
  {"iata": "DEL", "name": "Indira Gandhi International Airport", "city": "New Delhi", "country": "India", "lat": 28.5562, "lng": 77.1000},
  {"iata": "DEN", "name": "Denver International Airport", "city": "Denver", "country": "United States", "lat": 39.8561, "lng": -104.6737},
  {"iata": "DFW", "name": "Dallas/Fort Worth International Airport", "city": "Dallas-Fort Worth", "country": "United States", "lat": 32.8998, "lng": -97.0403},
  {"iata": "DIL", "name": "Presidente Nicolau Lobato International Airport", "city": "Dili", "country": "Timor-Leste", "lat": -8.5464, "lng": 125.5247},
  {"iata": "DLA", "name": "Douala International Airport", "city": "Douala", "country": "Cameroon", "lat": 4.0061, "lng": 9.7195},
  {"iata": "DLC", "name": "Dalian Zhoushuizi International Airport", "city": "Dalian", "country": "China", "lat": 38.9657, "lng": 121.5386},
  {"iata": "DME", "name": "Moscow Domodedovo Airport", "city": "Moscow", "country": "Russia", "lat": 55.4088, "lng": 37.9063},
  {"iata": "DMK", "name": "Don Mueang International Airport", "city": "Bangkok", "country": "Thailand", "lat": 13.9126, "lng": 100.6068},
  {"iata": "DMM", "name": "King Fahd International Airport", "city": "Dammam", "country": "Saudi Arabia", "lat": 26.4712, "lng": 49.7979},
  {"iata": "DOH", "name": "Hamad International Airport", "city": "Doha", "country": "Qatar", "lat": 25.2731, "lng": 51.6081},
  {"iata": "DPS", "name": "Ngurah Rai International Airport", "city": "Denpasar", "country": "Indonesia", "lat": -8.7482, "lng": 115.1672},
  {"iata": "DRW", "name": "Darwin International Airport", "city": "Darwin", "country": "Australia", "lat": -12.4147, "lng": 130.8767},
  {"iata": "DSS", "name": "Blaise Diagne International Airport", "city": "Dakar", "country": "Senegal", "lat": 14.6700, "lng": -17.0733},
  {"iata": "DTW", "name": "Detroit Metropolitan Wayne County Airport", "city": "Detroit", "country": "United States", "lat": 42.2124, "lng": -83.3534},
  {"iata": "DUB", "name": "Dublin Airport", "city": "Dublin", "country": "Ireland", "lat": 53.4213, "lng": -6.2701},
  {"iata": "DUR", "name": "King Shaka International Airport", "city": "Durban", "country": "South Africa", "lat": -29.6144, "lng": 31.1197},
  {"iata": "DUS", "name": "Dusseldorf Airport", "city": "Dusseldorf", "country": "Germany", "lat": 51.2895, "lng": 6.7668},
  {"iata": "DVO", "name": "Francisco Bangoy International Airport", "city": "Davao", "country": "Philippines", "lat": 7.1255, "lng": 125.6456},
  {"iata": "DXB", "name": "Dubai International Airport", "city": "Dubai", "country": "United Arab Emirates", "lat": 25.2532, "lng": 55.3657},
  {"iata": "DYG", "name": "Zhangjiajie Hehua Airport", "city": "Zhangjiajie", "country": "China", "lat": 29.1028, "lng": 110.4431},
  {"iata": "EBB", "name": "Entebbe International Airport", "city": "Entebbe", "country": "Uganda", "lat": 0.0424, "lng": 32.4435},
  {"iata": "EDI", "name": "Edinburgh Airport", "city": "Edinburgh", "country": "United Kingdom", "lat": 55.9508, "lng": -3.3725},
  {"iata": "EIN", "name": "Eindhoven Airport", "city": "Eindhoven", "country": "Netherlands", "lat": 51.4501, "lng": 5.3745},
  {"iata": "ESB", "name": "Esenboga International Airport", "city": "Ankara", "country": "Turkey", "lat": 40.1281, "lng": 32.9951},
  {"iata": "EVN", "name": "Zvartnots International Airport", "city": "Yerevan", "country": "Armenia", "lat": 40.1473, "lng": 44.3959},
  {"iata": "EWR", "name": "Newark Liberty International Airport", "city": "Newark", "country": "United States", "lat": 40.6895, "lng": -74.1745},
  {"iata": "EZE", "name": "Ministro Pistarini International Airport", "city": "Buenos Aires", "country": "Argentina", "lat": -34.8222, "lng": -58.5358},
  {"iata": "FAO", "name": "Faro Airport", "city": "Faro", "country": "Portugal", "lat": 37.0144, "lng": -7.9659},
  {"iata": "FCO", "name": "Leonardo da Vinci-Fiumicino Airport", "city": "Rome", "country": "Italy", "lat": 41.8003, "lng": 12.2389},
  {"iata": "FIH", "name": "N'djili International Airport", "city": "Kinshasa", "country": "Democratic Republic of the Congo", "lat": -4.3858, "lng": 15.4446},
  {"iata": "FLL", "name": "Fort Lauderdale-Hollywood International Airport", "city": "Fort Lauderdale", "country": "United States", "lat": 26.0726, "lng": -80.1527},
  {"iata": "FLR", "name": "Florence Airport", "city": "Florence", "country": "Italy", "lat": 43.8100, "lng": 11.2051},
  {"iata": "FNA", "name": "Lungi International Airport", "city": "Freetown", "country": "Sierra Leone", "lat": 8.6164, "lng": -13.1956},
  {"iata": "FOR", "name": "Pinto Martins International Airport", "city": "Fortaleza", "country": "Brazil", "lat": -3.7763, "lng": -38.5326},
  {"iata": "FRA", "name": "Frankfurt Airport", "city": "Frankfurt", "country": "Germany", "lat": 50.0379, "lng": 8.5622},
  {"iata": "FRU", "name": "Manas International Airport", "city": "Bishkek", "country": "Kyrgyzstan", "lat": 43.0613, "lng": 74.4776},
  {"iata": "FUK", "name": "Fukuoka Airport", "city": "Fukuoka", "country": "Japan", "lat": 33.5859, "lng": 130.4511},
  {"iata": "GBE", "name": "Sir Seretse Khama International Airport", "city": "Gaborone", "country": "Botswana", "lat": -24.5552, "lng": 25.9182},
  {"iata": "GCM", "name": "Owen Roberts International Airport", "city": "George Town", "country": "Cayman Islands", "lat": 19.2928, "lng": -81.3577},
  {"iata": "GDL", "name": "Guadalajara International Airport", "city": "Guadalajara", "country": "Mexico", "lat": 20.5218, "lng": -103.3113},
  {"iata": "GDN", "name": "Gdansk Lech Walesa Airport", "city": "Gdansk", "country": "Poland", "lat": 54.3776, "lng": 18.4662},
  {"iata": "GIG", "name": "Rio de Janeiro-Galeao International Airport", "city": "Rio de Janeiro", "country": "Brazil", "lat": -22.8100, "lng": -43.2506},
  {"iata": "GLA", "name": "Glasgow Airport", "city": "Glasgow", "country": "United Kingdom", "lat": 55.8719, "lng": -4.4331},
  {"iata": "GMP", "name": "Gimpo International Airport", "city": "Seoul", "country": "South Korea", "lat": 37.5586, "lng": 126.7906},
  {"iata": "GOI", "name": "Goa International Airport", "city": "Goa", "country": "India", "lat": 15.3808, "lng": 73.8314},
  {"iata": "GOT", "name": "Gothenburg Landvetter Airport", "city": "Gothenburg", "country": "Sweden", "lat": 57.6628, "lng": 12.2798},
  {"iata": "GRU", "name": "Sao Paulo-Guarulhos International Airport", "city": "Sao Paulo", "country": "Brazil", "lat": -23.4356, "lng": -46.4731},
  {"iata": "GUA", "name": "La Aurora International Airport", "city": "Guatemala City", "country": "Guatemala", "lat": 14.5833, "lng": -90.5275},
  {"iata": "GUM", "name": "Antonio B. Won Pat International Airport", "city": "Hagatna", "country": "Guam", "lat": 13.4834, "lng": 144.7959},
  {"iata": "GVA", "name": "Geneva Airport", "city": "Geneva", "country": "Switzerland", "lat": 46.2381, "lng": 6.1090},
  {"iata": "GYD", "name": "Heydar Aliyev International Airport", "city": "Baku", "country": "Azerbaijan", "lat": 40.4675, "lng": 50.0467},
  {"iata": "GYE", "name": "Jose Joaquin de Olmedo International Airport", "city": "Guayaquil", "country": "Ecuador", "lat": -2.1574, "lng": -79.8837},
  {"iata": "HAJ", "name": "Hannover Airport", "city": "Hannover", "country": "Germany", "lat": 52.4611, "lng": 9.6850},
  {"iata": "HAK", "name": "Haikou Meilan International Airport", "city": "Haikou", "country": "China", "lat": 19.9349, "lng": 110.4590},
  {"iata": "HAM", "name": "Hamburg Airport", "city": "Hamburg", "country": "Germany", "lat": 53.6304, "lng": 9.9882},
  {"iata": "HAN", "name": "Noi Bai International Airport", "city": "Hanoi", "country": "Vietnam", "lat": 21.2212, "lng": 105.8070},
  {"iata": "HAV", "name": "Jose Marti International Airport", "city": "Havana", "country": "Cuba", "lat": 22.9892, "lng": -82.4091},
  {"iata": "HDY", "name": "Hat Yai International Airport", "city": "Hat Yai", "country": "Thailand", "lat": 6.9332, "lng": 100.3928},
  {"iata": "HEL", "name": "Helsinki-Vantaa Airport", "city": "Helsinki", "country": "Finland", "lat": 60.3172, "lng": 24.9633},
  {"iata": "HER", "name": "Heraklion International Airport", "city": "Heraklion", "country": "Greece", "lat": 35.3397, "lng": 25.1803},
  {"iata": "HGH", "name": "Hangzhou Xiaoshan International Airport", "city": "Hangzhou", "country": "China", "lat": 30.2295, "lng": 120.4344},
  {"iata": "HIJ", "name": "Hiroshima Airport", "city": "Hiroshima", "country": "Japan", "lat": 34.4361, "lng": 132.9194},
  {"iata": "HKG", "name": "Hong Kong International Airport", "city": "Hong Kong", "country": "Hong Kong", "lat": 22.3080, "lng": 113.9185},
  {"iata": "HKT", "name": "Phuket International Airport", "city": "Phuket", "country": "Thailand", "lat": 8.1132, "lng": 98.3169},
  {"iata": "HND", "name": "Tokyo Haneda Airport", "city": "Tokyo", "country": "Japan", "lat": 35.5494, "lng": 139.7798},
  {"iata": "HNL", "name": "Daniel K. Inouye International Airport", "city": "Honolulu", "country": "United States", "lat": 21.3187, "lng": -157.9225},
  {"iata": "HOU", "name": "William P. Hobby Airport", "city": "Houston", "country": "United States", "lat": 29.6454, "lng": -95.2789},
  {"iata": "HPH", "name": "Cat Bi International Airport", "city": "Haiphong", "country": "Vietnam", "lat": 20.8194, "lng": 106.7253},
  {"iata": "HRB", "name": "Harbin Taiping International Airport", "city": "Harbin", "country": "China", "lat": 45.6234, "lng": 126.2503},
  {"iata": "HRE", "name": "Robert Gabriel Mugabe International Airport", "city": "Harare", "country": "Zimbabwe", "lat": -17.9318, "lng": 31.0928},
  {"iata": "HRG", "name": "Hurghada International Airport", "city": "Hurghada", "country": "Egypt", "lat": 27.1784, "lng": 33.7994},
  {"iata": "HYD", "name": "Rajiv Gandhi International Airport", "city": "Hyderabad", "country": "India", "lat": 17.2403, "lng": 78.4294},
  {"iata": "IAD", "name": "Washington Dulles International Airport", "city": "Washington", "country": "United States", "lat": 38.9445, "lng": -77.4558},
  {"iata": "IAH", "name": "George Bush Intercontinental Airport", "city": "Houston", "country": "United States", "lat": 29.9844, "lng": -95.3414},
  {"iata": "ICN", "name": "Incheon International Airport", "city": "Seoul", "country": "South Korea", "lat": 37.4602, "lng": 126.4407},
  {"iata": "IKA", "name": "Imam Khomeini International Airport", "city": "Tehran", "country": "Iran", "lat": 35.4161, "lng": 51.1522},
  {"iata": "IND", "name": "Indianapolis International Airport", "city": "Indianapolis", "country": "United States", "lat": 39.7173, "lng": -86.2944},
  {"iata": "IPC", "name": "Mataveri International Airport", "city": "Easter Island", "country": "Chile", "lat": -27.1648, "lng": -109.4218},
  {"iata": "ISB", "name": "Islamabad International Airport", "city": "Islamabad", "country": "Pakistan", "lat": 33.5605, "lng": 72.8526},
  {"iata": "IST", "name": "Istanbul Airport", "city": "Istanbul", "country": "Turkey", "lat": 41.2753, "lng": 28.7519},
  {"iata": "JAI", "name": "Jaipur International Airport", "city": "Jaipur", "country": "India", "lat": 26.8242, "lng": 75.8122},
  {"iata": "JAX", "name": "Jacksonville International Airport", "city": "Jacksonville", "country": "United States", "lat": 30.4941, "lng": -81.6879},
  {"iata": "JED", "name": "King Abdulaziz International Airport", "city": "Jeddah", "country": "Saudi Arabia", "lat": 21.6796, "lng": 39.1565},
  {"iata": "JFK", "name": "John F. Kennedy International Airport", "city": "New York", "country": "United States", "lat": 40.6413, "lng": -73.7781},
  {"iata": "JIB", "name": "Djibouti-Ambouli International Airport", "city": "Djibouti", "country": "Djibouti", "lat": 11.5473, "lng": 43.1595},
  {"iata": "JNB", "name": "O.R. Tambo International Airport", "city": "Johannesburg", "country": "South Africa", "lat": -26.1392, "lng": 28.2460},
  {"iata": "JRO", "name": "Kilimanjaro International Airport", "city": "Kilimanjaro", "country": "Tanzania", "lat": -3.4294, "lng": 37.0745},
  {"iata": "KBP", "name": "Boryspil International Airport", "city": "Kyiv", "country": "Ukraine", "lat": 50.3450, "lng": 30.8947},
  {"iata": "KBV", "name": "Krabi Airport", "city": "Krabi", "country": "Thailand", "lat": 8.0955, "lng": 98.9862},
  {"iata": "KEF", "name": "Keflavik International Airport", "city": "Reykjavik", "country": "Iceland", "lat": 63.9850, "lng": -22.6056},
  {"iata": "KGL", "name": "Kigali International Airport", "city": "Kigali", "country": "Rwanda", "lat": -1.9686, "lng": 30.1395},
  {"iata": "KHH", "name": "Kaohsiung International Airport", "city": "Kaohsiung", "country": "Taiwan", "lat": 22.5771, "lng": 120.3500},
  {"iata": "KHI", "name": "Jinnah International Airport", "city": "Karachi", "country": "Pakistan", "lat": 24.9065, "lng": 67.1609},
  {"iata": "KIN", "name": "Norman Manley International Airport", "city": "Kingston", "country": "Jamaica", "lat": 17.9357, "lng": -76.7875},
  {"iata": "KIX", "name": "Kansai International Airport", "city": "Osaka", "country": "Japan", "lat": 34.4320, "lng": 135.2304},
  {"iata": "KMG", "name": "Kunming Changshui International Airport", "city": "Kunming", "country": "China", "lat": 24.9924, "lng": 102.7432},
  {"iata": "KNO", "name": "Kualanamu International Airport", "city": "Medan", "country": "Indonesia", "lat": 3.6422, "lng": 98.8853},
  {"iata": "KRK", "name": "John Paul II International Airport", "city": "Krakow", "country": "Poland", "lat": 50.0777, "lng": 19.7848},
  {"iata": "KRT", "name": "Khartoum International Airport", "city": "Khartoum", "country": "Sudan", "lat": 15.5895, "lng": 32.5532},
  {"iata": "KTM", "name": "Tribhuvan International Airport", "city": "Kathmandu", "country": "Nepal", "lat": 27.6966, "lng": 85.3591},
  {"iata": "KUL", "name": "Kuala Lumpur International Airport", "city": "Kuala Lumpur", "country": "Malaysia", "lat": 2.7456, "lng": 101.7099},
  {"iata": "KWE", "name": "Guiyang Longdongbao International Airport", "city": "Guiyang", "country": "China", "lat": 26.5385, "lng": 106.8008},
  {"iata": "KWI", "name": "Kuwait International Airport", "city": "Kuwait City", "country": "Kuwait", "lat": 29.2266, "lng": 47.9689},
  {"iata": "LAD", "name": "Quatro de Fevereiro Airport", "city": "Luanda", "country": "Angola", "lat": -8.8584, "lng": 13.2312},
  {"iata": "LAS", "name": "Harry Reid International Airport", "city": "Las Vegas", "country": "United States", "lat": 36.0840, "lng": -115.1537},
  {"iata": "LAX", "name": "Los Angeles International Airport", "city": "Los Angeles", "country": "United States", "lat": 33.9425, "lng": -118.4081},
  {"iata": "LBA", "name": "Leeds Bradford Airport", "city": "Leeds", "country": "United Kingdom", "lat": 53.8659, "lng": -1.6606},
  {"iata": "LBV", "name": "Leon-Mba International Airport", "city": "Libreville", "country": "Gabon", "lat": 0.4586, "lng": 9.4123},
  {"iata": "LCA", "name": "Larnaca International Airport", "city": "Larnaca", "country": "Cyprus", "lat": 34.8751, "lng": 33.6249},
  {"iata": "LED", "name": "Pulkovo Airport", "city": "Saint Petersburg", "country": "Russia", "lat": 59.8003, "lng": 30.2625},
  {"iata": "LEJ", "name": "Leipzig/Halle Airport", "city": "Leipzig", "country": "Germany", "lat": 51.4324, "lng": 12.2416},
  {"iata": "LGA", "name": "LaGuardia Airport", "city": "New York", "country": "United States", "lat": 40.7772, "lng": -73.8726},
  {"iata": "LGW", "name": "London Gatwick Airport", "city": "London", "country": "United Kingdom", "lat": 51.1537, "lng": -0.1821},
  {"iata": "LHE", "name": "Allama Iqbal International Airport", "city": "Lahore", "country": "Pakistan", "lat": 31.5216, "lng": 74.4036},
  {"iata": "LHR", "name": "London Heathrow Airport", "city": "London", "country": "United Kingdom", "lat": 51.4700, "lng": -0.4543},
  {"iata": "LHW", "name": "Lanzhou Zhongchuan International Airport", "city": "Lanzhou", "country": "China", "lat": 36.5152, "lng": 103.6202},
  {"iata": "LIM", "name": "Jorge Chavez International Airport", "city": "Lima", "country": "Peru", "lat": -12.0219, "lng": -77.1143},
  {"iata": "LIN", "name": "Milan Linate Airport", "city": "Milan", "country": "Italy", "lat": 45.4555, "lng": 9.2761},
  {"iata": "LIS", "name": "Humberto Delgado Airport", "city": "Lisbon", "country": "Portugal", "lat": 38.7813, "lng": -9.1359},
  {"iata": "LJU", "name": "Ljubljana Joze Pucnik Airport", "city": "Ljubljana", "country": "Slovenia", "lat": 46.2237, "lng": 14.4576},
  {"iata": "LLW", "name": "Lilongwe International Airport", "city": "Lilongwe", "country": "Malawi", "lat": -13.7894, "lng": 33.7811},
  {"iata": "LOS", "name": "Murtala Muhammed International Airport", "city": "Lagos", "country": "Nigeria", "lat": 6.5774, "lng": 3.3211},
  {"iata": "LPB", "name": "El Alto International Airport", "city": "La Paz", "country": "Bolivia", "lat": -16.5133, "lng": -68.1923},
  {"iata": "LPQ", "name": "Luang Prabang International Airport", "city": "Luang Prabang", "country": "Laos", "lat": 19.8973, "lng": 102.1614},
  {"iata": "LTN", "name": "London Luton Airport", "city": "London", "country": "United Kingdom", "lat": 51.8747, "lng": -0.3684},
  {"iata": "LUN", "name": "Kenneth Kaunda International Airport", "city": "Lusaka", "country": "Zambia", "lat": -15.3309, "lng": 28.4526},
  {"iata": "LUX", "name": "Luxembourg Airport", "city": "Luxembourg", "country": "Luxembourg", "lat": 49.6233, "lng": 6.2044},
  {"iata": "LYS", "name": "Lyon-Saint Exupery Airport", "city": "Lyon", "country": "France", "lat": 45.7256, "lng": 5.0811},
  {"iata": "MAA", "name": "Chennai International Airport", "city": "Chennai", "country": "India", "lat": 12.9941, "lng": 80.1709},
  {"iata": "MAD", "name": "Adolfo Suarez Madrid-Barajas Airport", "city": "Madrid", "country": "Spain", "lat": 40.4983, "lng": -3.5676},
  {"iata": "MAN", "name": "Manchester Airport", "city": "Manchester", "country": "United Kingdom", "lat": 53.3537, "lng": -2.2750},
  {"iata": "MBA", "name": "Moi International Airport", "city": "Mombasa", "country": "Kenya", "lat": -4.0348, "lng": 39.5942},
  {"iata": "MBJ", "name": "Sangster International Airport", "city": "Montego Bay", "country": "Jamaica", "lat": 18.5037, "lng": -77.9133},
  {"iata": "MCO", "name": "Orlando International Airport", "city": "Orlando", "country": "United States", "lat": 28.4312, "lng": -81.3081},
  {"iata": "MCT", "name": "Muscat International Airport", "city": "Muscat", "country": "Oman", "lat": 23.5933, "lng": 58.2844},
  {"iata": "MDE", "name": "Jose Maria Cordova International Airport", "city": "Medellin", "country": "Colombia", "lat": 6.1645, "lng": -75.4231},
  {"iata": "MDL", "name": "Mandalay International Airport", "city": "Mandalay", "country": "Myanmar", "lat": 21.7022, "lng": 95.9779},
  {"iata": "MDW", "name": "Chicago Midway International Airport", "city": "Chicago", "country": "United States", "lat": 41.7868, "lng": -87.7522},
  {"iata": "MED", "name": "Prince Mohammad bin Abdulaziz International Airport", "city": "Medina", "country": "Saudi Arabia", "lat": 24.5534, "lng": 39.7051},
  {"iata": "MEL", "name": "Melbourne Airport", "city": "Melbourne", "country": "Australia", "lat": -37.6690, "lng": 144.8410},
  {"iata": "MEM", "name": "Memphis International Airport", "city": "Memphis", "country": "United States", "lat": 35.0424, "lng": -89.9767},
  {"iata": "MEX", "name": "Mexico City International Airport", "city": "Mexico City", "country": "Mexico", "lat": 19.4363, "lng": -99.0721},
  {"iata": "MFM", "name": "Macau International Airport", "city": "Macau", "country": "Macau", "lat": 22.1496, "lng": 113.5920},
  {"iata": "MGA", "name": "Augusto C. Sandino International Airport", "city": "Managua", "country": "Nicaragua", "lat": 12.1415, "lng": -86.1682},
  {"iata": "MGQ", "name": "Aden Abdulle International Airport", "city": "Mogadishu", "country": "Somalia", "lat": 2.0144, "lng": 45.3047},
  {"iata": "MIA", "name": "Miami International Airport", "city": "Miami", "country": "United States", "lat": 25.7959, "lng": -80.2870},
  {"iata": "MKE", "name": "General Mitchell International Airport", "city": "Milwaukee", "country": "United States", "lat": 42.9472, "lng": -87.8966},
  {"iata": "MLA", "name": "Malta International Airport", "city": "Luqa", "country": "Malta", "lat": 35.8575, "lng": 14.4775},
  {"iata": "MLE", "name": "Velana International Airport", "city": "Male", "country": "Maldives", "lat": 4.1918, "lng": 73.5291},
  {"iata": "MNL", "name": "Ninoy Aquino International Airport", "city": "Manila", "country": "Philippines", "lat": 14.5086, "lng": 121.0197},
  {"iata": "MPM", "name": "Maputo International Airport", "city": "Maputo", "country": "Mozambique", "lat": -25.9208, "lng": 32.5726},
  {"iata": "MRS", "name": "Marseille Provence Airport", "city": "Marseille", "country": "France", "lat": 43.4393, "lng": 5.2214},
  {"iata": "MRU", "name": "Sir Seewoosagur Ramgoolam International Airport", "city": "Mauritius", "country": "Mauritius", "lat": -20.4302, "lng": 57.6836},
  {"iata": "MSP", "name": "Minneapolis-Saint Paul International Airport", "city": "Minneapolis", "country": "United States", "lat": 44.8848, "lng": -93.2223},
  {"iata": "MSY", "name": "Louis Armstrong New Orleans International Airport", "city": "New Orleans", "country": "United States", "lat": 29.9934, "lng": -90.2580},
  {"iata": "MTY", "name": "Monterrey International Airport", "city": "Monterrey", "country": "Mexico", "lat": 25.7785, "lng": -100.1069},
  {"iata": "MUC", "name": "Munich Airport", "city": "Munich", "country": "Germany", "lat": 48.3538, "lng": 11.7861},
  {"iata": "MVD", "name": "Carrasco International Airport", "city": "Montevideo", "country": "Uruguay", "lat": -34.8384, "lng": -56.0308},
  {"iata": "MXP", "name": "Milan Malpensa Airport", "city": "Milan", "country": "Italy", "lat": 45.6306, "lng": 8.7281},
  {"iata": "NAN", "name": "Nadi International Airport", "city": "Nadi", "country": "Fiji", "lat": -17.7554, "lng": 177.4431},
  {"iata": "NAP", "name": "Naples International Airport", "city": "Naples", "country": "Italy", "lat": 40.8860, "lng": 14.2908},
  {"iata": "NAS", "name": "Lynden Pindling International Airport", "city": "Nassau", "country": "Bahamas", "lat": 25.0390, "lng": -77.4662},
  {"iata": "NBO", "name": "Jomo Kenyatta International Airport", "city": "Nairobi", "country": "Kenya", "lat": -1.3192, "lng": 36.9278},
  {"iata": "NCE", "name": "Nice Cote d'Azur Airport", "city": "Nice", "country": "France", "lat": 43.6584, "lng": 7.2159},
  {"iata": "NCL", "name": "Newcastle Airport", "city": "Newcastle", "country": "United Kingdom", "lat": 55.0374, "lng": -1.6917},
  {"iata": "NGB", "name": "Ningbo Lishe International Airport", "city": "Ningbo", "country": "China", "lat": 29.8267, "lng": 121.4612},
  {"iata": "NGO", "name": "Chubu Centrair International Airport", "city": "Nagoya", "country": "Japan", "lat": 34.8584, "lng": 136.8125},
  {"iata": "NKC", "name": "Nouakchott-Oumtounsy International Airport", "city": "Nouakchott", "country": "Mauritania", "lat": 18.3100, "lng": -15.9697},
  {"iata": "NKG", "name": "Nanjing Lukou International Airport", "city": "Nanjing", "country": "China", "lat": 31.7420, "lng": 118.8620},
  {"iata": "NNG", "name": "Nanning Wuxu International Airport", "city": "Nanning", "country": "China", "lat": 22.6083, "lng": 108.1722},
  {"iata": "NOU", "name": "La Tontouta International Airport", "city": "Noumea", "country": "New Caledonia", "lat": -22.0146, "lng": 166.2128},
  {"iata": "NRT", "name": "Narita International Airport", "city": "Tokyo", "country": "Japan", "lat": 35.7647, "lng": 140.3864},
  {"iata": "NTE", "name": "Nantes Atlantique Airport", "city": "Nantes", "country": "France", "lat": 47.1532, "lng": -1.6108},
  {"iata": "NUE", "name": "Nuremberg Airport", "city": "Nuremberg", "country": "Germany", "lat": 49.4987, "lng": 11.0669},
  {"iata": "OAK", "name": "Oakland International Airport", "city": "Oakland", "country": "United States", "lat": 37.7213, "lng": -122.2208},
  {"iata": "OKA", "name": "Naha Airport", "city": "Okinawa", "country": "Japan", "lat": 26.1958, "lng": 127.6459},
  {"iata": "OKC", "name": "Will Rogers World Airport", "city": "Oklahoma City", "country": "United States", "lat": 35.3931, "lng": -97.6007},
  {"iata": "OOL", "name": "Gold Coast Airport", "city": "Gold Coast", "country": "Australia", "lat": -28.1644, "lng": 153.5047},
  {"iata": "OPO", "name": "Francisco Sa Carneiro Airport", "city": "Porto", "country": "Portugal", "lat": 41.2481, "lng": -8.6814},
  {"iata": "ORD", "name": "O'Hare International Airport", "city": "Chicago", "country": "United States", "lat": 41.9742, "lng": -87.9073},
  {"iata": "ORK", "name": "Cork Airport", "city": "Cork", "country": "Ireland", "lat": 51.8413, "lng": -8.4911},
  {"iata": "ORY", "name": "Paris Orly Airport", "city": "Paris", "country": "France", "lat": 48.7262, "lng": 2.3652},
  {"iata": "OSL", "name": "Oslo Gardermoen Airport", "city": "Oslo", "country": "Norway", "lat": 60.1939, "lng": 11.1004},
  {"iata": "OTP", "name": "Henri Coanda International Airport", "city": "Bucharest", "country": "Romania", "lat": 44.5711, "lng": 26.0850},
  {"iata": "OUA", "name": "Ouagadougou Airport", "city": "Ouagadougou", "country": "Burkina Faso", "lat": 12.3532, "lng": -1.5124},
  {"iata": "OVB", "name": "Tolmachevo Airport", "city": "Novosibirsk", "country": "Russia", "lat": 55.0126, "lng": 82.6507},
  {"iata": "PAP", "name": "Toussaint Louverture International Airport", "city": "Port-au-Prince", "country": "Haiti", "lat": 18.5800, "lng": -72.2925},
  {"iata": "PBM", "name": "Johan Adolf Pengel International Airport", "city": "Paramaribo", "country": "Suriname", "lat": 5.4528, "lng": -55.1878},
  {"iata": "PDX", "name": "Portland International Airport", "city": "Portland", "country": "United States", "lat": 45.5898, "lng": -122.5951},
  {"iata": "PEK", "name": "Beijing Capital International Airport", "city": "Beijing", "country": "China", "lat": 40.0799, "lng": 116.6031},
  {"iata": "PEN", "name": "Penang International Airport", "city": "Penang", "country": "Malaysia", "lat": 5.2972, "lng": 100.2769},
  {"iata": "PER", "name": "Perth Airport", "city": "Perth", "country": "Australia", "lat": -31.9403, "lng": 115.9672},
  {"iata": "PEW", "name": "Peshawar International Airport", "city": "Peshawar", "country": "Pakistan", "lat": 33.9939, "lng": 71.5146},
  {"iata": "PHL", "name": "Philadelphia International Airport", "city": "Philadelphia", "country": "United States", "lat": 39.8721, "lng": -75.2411},
  {"iata": "PHX", "name": "Phoenix Sky Harbor International Airport", "city": "Phoenix", "country": "United States", "lat": 33.4373, "lng": -112.0078},
  {"iata": "PIT", "name": "Pittsburgh International Airport", "city": "Pittsburgh", "country": "United States", "lat": 40.4915, "lng": -80.2329},
  {"iata": "PKX", "name": "Beijing Daxing International Airport", "city": "Beijing", "country": "China", "lat": 39.5098, "lng": 116.4105},
  {"iata": "PLZ", "name": "Chief Dawid Stuurman International Airport", "city": "Port Elizabeth", "country": "South Africa", "lat": -33.9849, "lng": 25.6173},
  {"iata": "PMI", "name": "Palma de Mallorca Airport", "city": "Palma de Mallorca", "country": "Spain", "lat": 39.5517, "lng": 2.7388},
  {"iata": "PMO", "name": "Falcone-Borsellino Airport", "city": "Palermo", "country": "Italy", "lat": 38.1760, "lng": 13.0910},
  {"iata": "PNH", "name": "Phnom Penh International Airport", "city": "Phnom Penh", "country": "Cambodia", "lat": 11.5466, "lng": 104.8441},
  {"iata": "PNQ", "name": "Pune Airport", "city": "Pune", "country": "India", "lat": 18.5822, "lng": 73.9197},
  {"iata": "POA", "name": "Salgado Filho International Airport", "city": "Porto Alegre", "country": "Brazil", "lat": -29.9944, "lng": -51.1714},
  {"iata": "POM", "name": "Jacksons International Airport", "city": "Port Moresby", "country": "Papua New Guinea", "lat": -6.0085, "lng": 147.0080},
  {"iata": "POS", "name": "Piarco International Airport", "city": "Port of Spain", "country": "Trinidad and Tobago", "lat": 10.5954, "lng": -61.3372},
  {"iata": "PPT", "name": "Fa'a'a International Airport", "city": "Papeete", "country": "French Polynesia", "lat": -17.5537, "lng": -149.6071},
  {"iata": "PRG", "name": "Vaclav Havel Airport Prague", "city": "Prague", "country": "Czech Republic", "lat": 50.1008, "lng": 14.2600},
  {"iata": "PSA", "name": "Pisa International Airport", "city": "Pisa", "country": "Italy", "lat": 43.6839, "lng": 10.3927},
  {"iata": "PTY", "name": "Tocumen International Airport", "city": "Panama City", "country": "Panama", "lat": 9.0714, "lng": -79.3835},
  {"iata": "PUJ", "name": "Punta Cana International Airport", "city": "Punta Cana", "country": "Dominican Republic", "lat": 18.5674, "lng": -68.3634},
  {"iata": "PUS", "name": "Gimhae International Airport", "city": "Busan", "country": "South Korea", "lat": 35.1795, "lng": 128.9382},
  {"iata": "PVG", "name": "Shanghai Pudong International Airport", "city": "Shanghai", "country": "China", "lat": 31.1443, "lng": 121.8083},
  {"iata": "PVR", "name": "Licenciado Gustavo Diaz Ordaz International Airport", "city": "Puerto Vallarta", "country": "Mexico", "lat": 20.6801, "lng": -105.2540},
  {"iata": "RAK", "name": "Marrakech Menara Airport", "city": "Marrakech", "country": "Morocco", "lat": 31.6069, "lng": -8.0363},
  {"iata": "RAR", "name": "Rarotonga International Airport", "city": "Rarotonga", "country": "Cook Islands", "lat": -21.2027, "lng": -159.8064},
  {"iata": "RBA", "name": "Rabat-Sale Airport", "city": "Rabat", "country": "Morocco", "lat": 34.0515, "lng": -6.7515},
  {"iata": "RDU", "name": "Raleigh-Durham International Airport", "city": "Raleigh-Durham", "country": "United States", "lat": 35.8776, "lng": -78.7875},
  {"iata": "REC", "name": "Recife/Guararapes International Airport", "city": "Recife", "country": "Brazil", "lat": -8.1264, "lng": -34.9236},
  {"iata": "REP", "name": "Siem Reap International Airport", "city": "Siem Reap", "country": "Cambodia", "lat": 13.4107, "lng": 103.8128},
  {"iata": "RGN", "name": "Yangon International Airport", "city": "Yangon", "country": "Myanmar", "lat": 16.9073, "lng": 96.1332},
  {"iata": "RIX", "name": "Riga International Airport", "city": "Riga", "country": "Latvia", "lat": 56.9236, "lng": 23.9711},
  {"iata": "ROV", "name": "Platov International Airport", "city": "Rostov-on-Don", "country": "Russia", "lat": 47.4939, "lng": 39.9247},
  {"iata": "RSW", "name": "Southwest Florida International Airport", "city": "Fort Myers", "country": "United States", "lat": 26.5362, "lng": -81.7552},
  {"iata": "RUH", "name": "King Khalid International Airport", "city": "Riyadh", "country": "Saudi Arabia", "lat": 24.9576, "lng": 46.6988},
  {"iata": "RUN", "name": "Roland Garros Airport", "city": "Saint-Denis", "country": "Reunion", "lat": -20.8871, "lng": 55.5103},
  {"iata": "SAH", "name": "Sana'a International Airport", "city": "Sana'a", "country": "Yemen", "lat": 15.4763, "lng": 44.2197},
  {"iata": "SAL", "name": "Monsenor Oscar Arnulfo Romero International Airport", "city": "San Salvador", "country": "El Salvador", "lat": 13.4409, "lng": -89.0557},
  {"iata": "SAN", "name": "San Diego International Airport", "city": "San Diego", "country": "United States", "lat": 32.7336, "lng": -117.1897},
  {"iata": "SAT", "name": "San Antonio International Airport", "city": "San Antonio", "country": "United States", "lat": 29.5337, "lng": -98.4698},
  {"iata": "SAW", "name": "Sabiha Gokcen International Airport", "city": "Istanbul", "country": "Turkey", "lat": 40.8986, "lng": 29.3092},
  {"iata": "SCL", "name": "Arturo Merino Benitez International Airport", "city": "Santiago", "country": "Chile", "lat": -33.3930, "lng": -70.7858},
  {"iata": "SDJ", "name": "Sendai Airport", "city": "Sendai", "country": "Japan", "lat": 38.1397, "lng": 140.9170},
  {"iata": "SDQ", "name": "Las Americas International Airport", "city": "Santo Domingo", "country": "Dominican Republic", "lat": 18.4297, "lng": -69.6689},
  {"iata": "SEA", "name": "Seattle-Tacoma International Airport", "city": "Seattle", "country": "United States", "lat": 47.4502, "lng": -122.3088},
  {"iata": "SEZ", "name": "Seychelles International Airport", "city": "Mahe", "country": "Seychelles", "lat": -4.6743, "lng": 55.5218},
  {"iata": "SFO", "name": "San Francisco International Airport", "city": "San Francisco", "country": "United States", "lat": 37.6213, "lng": -122.3790},
  {"iata": "SGN", "name": "Tan Son Nhat International Airport", "city": "Ho Chi Minh City", "country": "Vietnam", "lat": 10.8188, "lng": 106.6520},
  {"iata": "SHA", "name": "Shanghai Hongqiao International Airport", "city": "Shanghai", "country": "China", "lat": 31.1979, "lng": 121.3363},
  {"iata": "SHE", "name": "Shenyang Taoxian International Airport", "city": "Shenyang", "country": "China", "lat": 41.6398, "lng": 123.4834},
  {"iata": "SHJ", "name": "Sharjah International Airport", "city": "Sharjah", "country": "United Arab Emirates", "lat": 25.3286, "lng": 55.5172},
  {"iata": "SIN", "name": "Singapore Changi Airport", "city": "Singapore", "country": "Singapore", "lat": 1.3502, "lng": 103.9940},
  {"iata": "SJC", "name": "San Jose International Airport", "city": "San Jose", "country": "United States", "lat": 37.3626, "lng": -121.9290},
  {"iata": "SJJ", "name": "Sarajevo International Airport", "city": "Sarajevo", "country": "Bosnia and Herzegovina", "lat": 43.8246, "lng": 18.3315},
  {"iata": "SJO", "name": "Juan Santamaria International Airport", "city": "San Jose", "country": "Costa Rica", "lat": 9.9939, "lng": -84.2088},
  {"iata": "SJU", "name": "Luis Munoz Marin International Airport", "city": "San Juan", "country": "Puerto Rico", "lat": 18.4394, "lng": -66.0018},
  {"iata": "SKG", "name": "Thessaloniki Airport Makedonia", "city": "Thessaloniki", "country": "Greece", "lat": 40.5197, "lng": 22.9709},
  {"iata": "SKP", "name": "Skopje International Airport", "city": "Skopje", "country": "North Macedonia", "lat": 41.9616, "lng": 21.6214},
  {"iata": "SLC", "name": "Salt Lake City International Airport", "city": "Salt Lake City", "country": "United States", "lat": 40.7884, "lng": -111.9778},
  {"iata": "SLL", "name": "Salalah Airport", "city": "Salalah", "country": "Oman", "lat": 17.0387, "lng": 54.0913},
  {"iata": "SMF", "name": "Sacramento International Airport", "city": "Sacramento", "country": "United States", "lat": 38.6954, "lng": -121.5908},
  {"iata": "SNA", "name": "John Wayne Airport", "city": "Santa Ana", "country": "United States", "lat": 33.6757, "lng": -117.8682},
  {"iata": "SOF", "name": "Sofia Airport", "city": "Sofia", "country": "Bulgaria", "lat": 42.6952, "lng": 23.4062},
  {"iata": "SPN", "name": "Saipan International Airport", "city": "Saipan", "country": "Northern Mariana Islands", "lat": 15.1190, "lng": 145.7294},
  {"iata": "SPU", "name": "Split Airport", "city": "Split", "country": "Croatia", "lat": 43.5389, "lng": 16.2980},
  {"iata": "SSH", "name": "Sharm el-Sheikh International Airport", "city": "Sharm el-Sheikh", "country": "Egypt", "lat": 27.9773, "lng": 34.3950},
  {"iata": "SSA", "name": "Deputado Luis Eduardo Magalhaes International Airport", "city": "Salvador", "country": "Brazil", "lat": -12.9086, "lng": -38.3225},
  {"iata": "STI", "name": "Cibao International Airport", "city": "Santiago de los Caballeros", "country": "Dominican Republic", "lat": 19.4061, "lng": -70.6042},
  {"iata": "STL", "name": "St. Louis Lambert International Airport", "city": "St. Louis", "country": "United States", "lat": 38.7487, "lng": -90.3700},
  {"iata": "STN", "name": "London Stansted Airport", "city": "London", "country": "United Kingdom", "lat": 51.8850, "lng": 0.2350},
  {"iata": "STR", "name": "Stuttgart Airport", "city": "Stuttgart", "country": "Germany", "lat": 48.6899, "lng": 9.2220},
  {"iata": "SUB", "name": "Juanda International Airport", "city": "Surabaya", "country": "Indonesia", "lat": -7.3798, "lng": 112.7868},
  {"iata": "SUV", "name": "Nausori International Airport", "city": "Suva", "country": "Fiji", "lat": -18.0433, "lng": 178.5592},
  {"iata": "SVG", "name": "Stavanger Airport Sola", "city": "Stavanger", "country": "Norway", "lat": 58.8767, "lng": 5.6378},
  {"iata": "SVO", "name": "Sheremetyevo International Airport", "city": "Moscow", "country": "Russia", "lat": 55.9726, "lng": 37.4146},
  {"iata": "SVX", "name": "Koltsovo Airport", "city": "Yekaterinburg", "country": "Russia", "lat": 56.7431, "lng": 60.8027},
  {"iata": "SXM", "name": "Princess Juliana International Airport", "city": "Philipsburg", "country": "Sint Maarten", "lat": 18.0410, "lng": -63.1089},
  {"iata": "SYD", "name": "Sydney Kingsford Smith Airport", "city": "Sydney", "country": "Australia", "lat": -33.9461, "lng": 151.1772},
  {"iata": "SYX", "name": "Sanya Phoenix International Airport", "city": "Sanya", "country": "China", "lat": 18.3029, "lng": 109.4122},
  {"iata": "SZG", "name": "Salzburg Airport", "city": "Salzburg", "country": "Austria", "lat": 47.7933, "lng": 13.0043},
  {"iata": "SZX", "name": "Shenzhen Bao'an International Airport", "city": "Shenzhen", "country": "China", "lat": 22.6393, "lng": 113.8107},
  {"iata": "TAO", "name": "Qingdao Jiaodong International Airport", "city": "Qingdao", "country": "China", "lat": 36.2611, "lng": 120.1237},
  {"iata": "TAS", "name": "Tashkent International Airport", "city": "Tashkent", "country": "Uzbekistan", "lat": 41.2579, "lng": 69.2812},
  {"iata": "TBS", "name": "Tbilisi International Airport", "city": "Tbilisi", "country": "Georgia", "lat": 41.6692, "lng": 44.9547},
  {"iata": "TBU", "name": "Fua'amotu International Airport", "city": "Nuku'alofa", "country": "Tonga", "lat": -21.2412, "lng": -175.1497},
  {"iata": "TFN", "name": "Tenerife North Airport", "city": "Tenerife", "country": "Spain", "lat": 28.4827, "lng": -16.3415},
  {"iata": "TFS", "name": "Tenerife South Airport", "city": "Tenerife", "country": "Spain", "lat": 28.0445, "lng": -16.5725},
  {"iata": "TGD", "name": "Podgorica Airport", "city": "Podgorica", "country": "Montenegro", "lat": 42.3594, "lng": 19.2519},
  {"iata": "TGU", "name": "Toncontin International Airport", "city": "Tegucigalpa", "country": "Honduras", "lat": 14.0609, "lng": -87.2172},
  {"iata": "TIA", "name": "Tirana International Airport", "city": "Tirana", "country": "Albania", "lat": 41.4147, "lng": 19.7206},
  {"iata": "TIJ", "name": "Tijuana International Airport", "city": "Tijuana", "country": "Mexico", "lat": 32.5411, "lng": -116.9700},
  {"iata": "TIV", "name": "Tivat Airport", "city": "Tivat", "country": "Montenegro", "lat": 42.4047, "lng": 18.7233},
  {"iata": "TLL", "name": "Tallinn Airport", "city": "Tallinn", "country": "Estonia", "lat": 59.4133, "lng": 24.8328},
  {"iata": "TLV", "name": "Ben Gurion International Airport", "city": "Tel Aviv", "country": "Israel", "lat": 32.0114, "lng": 34.8867},
  {"iata": "TNA", "name": "Jinan Yaoqiang International Airport", "city": "Jinan", "country": "China", "lat": 36.8572, "lng": 117.2156},
  {"iata": "TNR", "name": "Ivato International Airport", "city": "Antananarivo", "country": "Madagascar", "lat": -18.7969, "lng": 47.4789},
  {"iata": "TPA", "name": "Tampa International Airport", "city": "Tampa", "country": "United States", "lat": 27.9755, "lng": -82.5332},
  {"iata": "TPE", "name": "Taiwan Taoyuan International Airport", "city": "Taipei", "country": "Taiwan", "lat": 25.0777, "lng": 121.2330},
  {"iata": "TRD", "name": "Trondheim Airport Vaernes", "city": "Trondheim", "country": "Norway", "lat": 63.4578, "lng": 10.9240},
  {"iata": "TRN", "name": "Turin Airport", "city": "Turin", "country": "Italy", "lat": 45.2008, "lng": 7.6496},
  {"iata": "TRV", "name": "Trivandrum International Airport", "city": "Thiruvananthapuram", "country": "India", "lat": 8.4821, "lng": 76.9201},
  {"iata": "TSA", "name": "Taipei Songshan Airport", "city": "Taipei", "country": "Taiwan", "lat": 25.0694, "lng": 121.5525},
  {"iata": "TSN", "name": "Tianjin Binhai International Airport", "city": "Tianjin", "country": "China", "lat": 39.1244, "lng": 117.3462},
  {"iata": "TUN", "name": "Tunis-Carthage International Airport", "city": "Tunis", "country": "Tunisia", "lat": 36.8510, "lng": 10.2272},
  {"iata": "TUS", "name": "Tucson International Airport", "city": "Tucson", "country": "United States", "lat": 32.1161, "lng": -110.9410},
  {"iata": "UBP", "name": "Ubon Ratchathani Airport", "city": "Ubon Ratchathani", "country": "Thailand", "lat": 15.2513, "lng": 104.8701},
  {"iata": "UIO", "name": "Mariscal Sucre International Airport", "city": "Quito", "country": "Ecuador", "lat": -0.1292, "lng": -78.3575},
  {"iata": "ULN", "name": "Chinggis Khaan International Airport", "city": "Ulaanbaatar", "country": "Mongolia", "lat": 47.8431, "lng": 106.7666},
  {"iata": "UPG", "name": "Sultan Hasanuddin International Airport", "city": "Makassar", "country": "Indonesia", "lat": -5.0613, "lng": 119.5540},
  {"iata": "URC", "name": "Urumqi Diwopu International Airport", "city": "Urumqi", "country": "China", "lat": 43.9071, "lng": 87.4742},
  {"iata": "USM", "name": "Samui Airport", "city": "Ko Samui", "country": "Thailand", "lat": 9.5478, "lng": 100.0623},
  {"iata": "UTH", "name": "Udon Thani International Airport", "city": "Udon Thani", "country": "Thailand", "lat": 17.3864, "lng": 102.7883},
  {"iata": "UTP", "name": "U-Tapao International Airport", "city": "Pattaya", "country": "Thailand", "lat": 12.6799, "lng": 101.0050},
  {"iata": "VCE", "name": "Venice Marco Polo Airport", "city": "Venice", "country": "Italy", "lat": 45.5053, "lng": 12.3519},
  {"iata": "VIE", "name": "Vienna International Airport", "city": "Vienna", "country": "Austria", "lat": 48.1103, "lng": 16.5697},
  {"iata": "VII", "name": "Vinh Airport", "city": "Vinh", "country": "Vietnam", "lat": 18.7376, "lng": 105.6706},
  {"iata": "VIX", "name": "Vitoria Airport", "city": "Vitoria", "country": "Brazil", "lat": -20.2581, "lng": -40.2864},
  {"iata": "VLC", "name": "Valencia Airport", "city": "Valencia", "country": "Spain", "lat": 39.4893, "lng": -0.4816},
  {"iata": "VNO", "name": "Vilnius Airport", "city": "Vilnius", "country": "Lithuania", "lat": 54.6341, "lng": 25.2858},
  {"iata": "VRA", "name": "Juan Gualberto Gomez International Airport", "city": "Varadero", "country": "Cuba", "lat": 23.0344, "lng": -81.4353},
  {"iata": "VRN", "name": "Verona Villafranca Airport", "city": "Verona", "country": "Italy", "lat": 45.3957, "lng": 10.8885},
  {"iata": "VTE", "name": "Wattay International Airport", "city": "Vientiane", "country": "Laos", "lat": 17.9883, "lng": 102.5633},
  {"iata": "VVO", "name": "Vladivostok International Airport", "city": "Vladivostok", "country": "Russia", "lat": 43.3960, "lng": 132.1483},
  {"iata": "WAW", "name": "Warsaw Chopin Airport", "city": "Warsaw", "country": "Poland", "lat": 52.1657, "lng": 20.9671},
  {"iata": "WDH", "name": "Hosea Kutako International Airport", "city": "Windhoek", "country": "Namibia", "lat": -22.4799, "lng": 17.4709},
  {"iata": "WLG", "name": "Wellington Airport", "city": "Wellington", "country": "New Zealand", "lat": -41.3272, "lng": 174.8051},
  {"iata": "WRO", "name": "Wroclaw Airport", "city": "Wroclaw", "country": "Poland", "lat": 51.1027, "lng": 16.8858},
  {"iata": "WUH", "name": "Wuhan Tianhe International Airport", "city": "Wuhan", "country": "China", "lat": 30.7838, "lng": 114.2081},
  {"iata": "XIY", "name": "Xi'an Xianyang International Airport", "city": "Xi'an", "country": "China", "lat": 34.4471, "lng": 108.7515},
  {"iata": "XMN", "name": "Xiamen Gaoqi International Airport", "city": "Xiamen", "country": "China", "lat": 24.5440, "lng": 118.1277},
  {"iata": "YEG", "name": "Edmonton International Airport", "city": "Edmonton", "country": "Canada", "lat": 53.3097, "lng": -113.5800},
  {"iata": "YHZ", "name": "Halifax Stanfield International Airport", "city": "Halifax", "country": "Canada", "lat": 44.8808, "lng": -63.5085},
  {"iata": "YOW", "name": "Ottawa Macdonald-Cartier International Airport", "city": "Ottawa", "country": "Canada", "lat": 45.3225, "lng": -75.6692},
  {"iata": "YQB", "name": "Quebec City Jean Lesage International Airport", "city": "Quebec City", "country": "Canada", "lat": 46.7911, "lng": -71.3934},
  {"iata": "YUL", "name": "Montreal-Pierre Elliott Trudeau International Airport", "city": "Montreal", "country": "Canada", "lat": 45.4706, "lng": -73.7408},
  {"iata": "YVR", "name": "Vancouver International Airport", "city": "Vancouver", "country": "Canada", "lat": 49.1967, "lng": -123.1815},
  {"iata": "YWG", "name": "Winnipeg James Armstrong Richardson International Airport", "city": "Winnipeg", "country": "Canada", "lat": 49.9100, "lng": -97.2399},
  {"iata": "YYC", "name": "Calgary International Airport", "city": "Calgary", "country": "Canada", "lat": 51.1215, "lng": -114.0076},
  {"iata": "YYJ", "name": "Victoria International Airport", "city": "Victoria", "country": "Canada", "lat": 48.6469, "lng": -123.4258},
  {"iata": "YYZ", "name": "Toronto Pearson International Airport", "city": "Toronto", "country": "Canada", "lat": 43.6777, "lng": -79.6248},
  {"iata": "ZAG", "name": "Franjo Tudman Airport", "city": "Zagreb", "country": "Croatia", "lat": 45.7429, "lng": 16.0688},
  {"iata": "ZNZ", "name": "Abeid Amani Karume International Airport", "city": "Zanzibar", "country": "Tanzania", "lat": -6.2220, "lng": 39.2249},
  {"iata": "ZQN", "name": "Queenstown Airport", "city": "Queenstown", "country": "New Zealand", "lat": -45.0211, "lng": 168.7392},
  {"iata": "ZRH", "name": "Zurich Airport", "city": "Zurich", "country": "Switzerland", "lat": 47.4647, "lng": 8.5492}
]
